,City,Latitude,Longitude,Max Temp,Humidity,Cloudiness,Wind Speed,Country,Date
0,Tuktoyaktuk,69.4541,-133.0374,24.94,84,45,7.36,CA,1619838000
1,Tarbagatay,51.4803,107.3602,48.85,48,47,1.23,RU,1619838000
2,Koygorodok,60.445,50.9968,43.79,92,100,13.56,RU,1619838000
3,Port-Gentil,-0.7193,8.7815,81.1,86,47,6.73,GA,1619838000
4,Rikitea,-23.1203,-134.9692,79.18,79,93,19.98,PF,1619838000
5,Biankouma,7.7391,-7.6138,71.2,88,34,3.29,CI,1619838000
6,Morondava,-20.2833,44.2833,75.11,83,0,5.7,MG,1619838000
7,Bluff,-46.6,168.3333,53.94,73,84,13.38,NZ,1619838000
8,Nouakchott,18.0858,-15.9785,67.03,85,3,18.75,MR,1619838000
9,Jamestown,42.097,-79.2353,39.31,61,80,18.75,US,1619838000
10,Iqaluit,63.7506,-68.5145,35.62,77,83,21.27,CA,1619838000
11,Rocha,-34.4833,-54.3333,55.22,76,80,6.46,UY,1619838000
12,Mahébourg,-20.4081,57.7,77.47,77,83,15.5,MU,1619838000
13,Cherskiy,68.75,161.3,21.02,81,81,2.48,RU,1619838000
14,Sobolevo,54.4299,31.8996,39.74,87,75,8.48,RU,1619838000
15,Norman Wells,65.282,-126.8329,43.07,51,47,6.22,CA,1619838000
16,Mataura,-46.1927,168.8643,54.95,67,69,4.03,NZ,1619838000
17,Ushuaia,-54.8,-68.3,37.35,95,83,3.4,AR,1619838000
18,Itaituba,-4.2761,-55.9836,74.03,97,100,0.63,BR,1619838000
19,Port Alfred,-33.5906,26.891,58.89,83,17,13.38,ZA,1619838000
20,Northam,51.0333,-4.2167,39.51,87,33,4.61,GB,1619838000
21,Albany,42.6001,-73.9662,43.3,70,69,15.88,US,1619838000
22,Dargaville,-35.9333,173.8833,65.26,63,62,9.69,NZ,1619838000
23,Bredasdorp,-34.5322,20.0403,51.98,88,0,2.75,ZA,1619838000
24,Inuvik,68.3499,-133.7218,33.89,73,100,3.87,CA,1619838000
25,Takāb,36.4009,47.1133,55.62,52,23,4.16,IR,1619838000
26,Laas,46.6166,10.7002,47.3,94,81,2.39,IT,1619838000
27,Pisco,-13.7,-76.2167,66.24,83,2,2.59,PE,1619838000
28,Provideniya,64.3833,-173.3,29.17,72,100,5.41,RU,1619838000
29,Vienna,48.2085,16.3721,53.06,82,32,13.6,AT,1619838000
30,Kavieng,-2.5744,150.7967,84.61,67,76,5.23,PG,1619838000
31,Hilo,19.7297,-155.09,77.27,60,12,9.15,US,1619838000
32,Antofagasta,-23.65,-70.4,63.34,81,45,4.9,CL,1619838000
33,Avarua,-21.2078,-159.775,81.14,71,83,18.5,CK,1619838000
34,Ahipara,-35.1667,173.1667,65.73,65,54,11.88,NZ,1619838000
35,Sabang,5.8933,95.3214,83.08,75,91,8.72,ID,1619838000
36,Philadelphia,39.9523,-75.1638,51.6,40,37,16.26,US,1619838000
37,Hong Kong,22.2855,114.1577,78.58,78,94,4.25,HK,1619838000
38,Liuli,-11.0833,34.6333,74.82,78,58,3.29,TZ,1619838000
39,Busselton,-33.65,115.3333,61.95,86,99,5.3,AU,1619838000
40,Punta Arenas,-53.15,-70.9167,44.46,93,93,14.81,CL,1619838000
41,Hithadhoo,-0.6,73.0833,84.09,71,90,7.14,MV,1619838000
42,Minervino Murge,41.0843,16.0784,59.76,81,100,4.92,IT,1619838000
43,Cockburn Town,21.4612,-71.1419,78.76,71,39,15.46,TC,1619838000
44,Butaritari,3.0707,172.7902,83.5,73,85,8.59,KI,1619838000
45,Castro,-24.7911,-50.0119,51.58,94,43,5.86,BR,1619838000
46,Olinda,-8.0089,-34.8553,78.26,76,83,12.97,BR,1619838000
47,Cape Town,-33.9258,18.4232,58.01,78,0,6.98,ZA,1619838000
48,Hayden,47.766,-116.7866,64.38,44,39,5.26,US,1619838000
49,Rundu,-17.9333,19.7667,66.47,58,92,4.38,NA,1619838000
50,Yenagoa,4.9247,6.2642,77.41,92,92,2.66,NG,1619838000
51,Carlisle,40.2015,-77.1889,46.9,42,22,20.22,US,1619838000
52,Rome,43.2128,-75.4557,37.62,86,93,17.47,US,1619838000
53,Cayenne,4.9333,-52.3333,76.59,94,83,8.28,GF,1619838000
54,Yellowknife,62.456,-114.3525,32.85,90,93,13.96,CA,1619838000
55,Arraial do Cabo,-22.9661,-42.0278,72.18,64,33,7.11,BR,1619838000
56,Ouro Preto do Oeste,-10.7481,-62.2158,71.35,92,24,1.54,BR,1619838000
57,Atbasar,51.8,68.3333,47.08,55,19,10.54,KZ,1619838000
58,Okha,53.5739,142.9478,34.99,81,100,10.71,RU,1619838000
59,Nouadhibou,20.931,-17.0347,65.91,93,0,19.62,MR,1619838000
60,Hualmay,-11.0964,-77.6139,66.61,87,21,8.34,PE,1619838000
61,Jeremoabo,-10.075,-38.4808,70.27,92,87,7.09,BR,1619838000
62,Charters Towers,-20.1,146.2667,79.61,55,25,12.26,AU,1619838000
63,Yulara,-25.2406,130.9889,81.34,23,96,9.33,AU,1619838000
64,Vaini,-21.2,-175.2,78.6,87,81,19.91,TO,1619838000
65,Hermanus,-34.4187,19.2345,55.35,79,0,7.81,ZA,1619838000
66,Zwedru,6.0667,-8.1281,73.15,98,99,3.18,LR,1619838000
67,Shelburne,44.0787,-80.2041,38.07,71,62,19.35,CA,1619838000
68,George Town,5.4112,100.3354,79.81,88,47,3.11,MY,1619838000
69,New Norfolk,-42.7826,147.0587,71.15,51,83,2.66,AU,1619838000
70,Puerto Ayora,-0.7393,-90.3518,75.13,79,27,6.82,EC,1619838000
71,Atuona,-9.8,-139.0333,79.45,68,0,0.18,PF,1619838000
72,Verkhnevilyuysk,63.4453,120.3167,41.43,86,100,8.9,RU,1619838000
73,Bathsheba,13.2167,-59.5167,78.84,68,57,12.53,BB,1619838000
74,Shingū,33.7333,135.9833,66.92,85,77,13.96,JP,1619838000
75,Sitka,57.0531,-135.33,45.73,89,93,1.99,US,1619838000
76,Udachny,66.4167,112.4,33.26,95,100,10.29,RU,1619838000
77,Kovdor,67.5662,30.4758,22.93,92,74,10.11,RU,1619838000
78,Vanavara,60.34,102.2797,38.32,82,85,8.14,RU,1619838000
79,Constitución,-35.3333,-72.4167,56.8,85,100,11.88,CL,1619838000
80,Comodoro Rivadavia,-45.8667,-67.5,63.01,59,33,5.55,AR,1619838000
81,Agüimes,27.9054,-15.4461,63.09,64,47,14.36,ES,1619838000
82,Taoudenni,22.6783,-3.9836,77.11,53,97,5.77,ML,1619838000
83,Port Elizabeth,-33.918,25.5701,58.01,64,0,7.72,ZA,1619838000
84,Kirakira,-10.4544,161.9205,82.4,81,94,5.21,SB,1619838000
85,Puerto El Triunfo,13.2833,-88.55,81.7,75,15,5.26,SV,1619838000
86,Namatanai,-3.6667,152.4333,84.79,66,51,0.65,PG,1619838000
87,Mata,40.683,-7.4592,41.92,89,54,2.8,PT,1619838000
88,Baracoa,20.3467,-74.4958,76.05,81,54,5.57,CU,1619838000
89,Oriximiná,-1.7656,-55.8661,75.74,91,96,2.77,BR,1619838000
90,Launceston,-41.45,147.1667,71.06,72,45,5.12,AU,1619838000
91,Thompson,55.7435,-97.8558,31.96,99,93,10.04,CA,1619838000
92,Alekseyevka,50.6309,38.6903,55.29,87,92,8.39,RU,1619838000
93,Mar del Plata,-38.0023,-57.5575,60.04,78,1,14.29,AR,1619838000
94,Payo,-3.7508,103.6372,86.23,85,82,2.66,ID,1619838000
95,Saint-Joseph,-21.3667,55.6167,75.49,79,13,13.89,RE,1619838000
96,Leningradskiy,69.3833,178.4167,19.92,92,100,22.75,RU,1619838000
97,Bethel,41.3712,-73.414,48.2,49,67,15.48,US,1619838000
98,Khatanga,71.9667,102.5,33.51,91,100,9.46,RU,1619838000
99,Quatre Cocos,-20.2078,57.7625,76.93,78,83,14.67,MU,1619838000
100,São Filipe,14.8961,-24.4956,72.63,76,25,8.21,CV,1619838000
101,Preston,53.7667,-2.7167,37.06,88,37,5.12,GB,1619838000
102,Tiksi,71.6872,128.8694,30.4,89,66,4.7,RU,1619838000
103,Kumëny,58.1089,49.9161,46.96,73,100,24.47,RU,1619838000
104,Tiznit Province,29.5833,-9.5,53.58,75,54,4.41,MA,1619838000
105,Rosita,13.9268,-84.4032,78.31,70,38,1.79,NI,1619838000
106,Kapaa,22.0752,-159.319,75.25,76,72,12.17,US,1619838000
107,Soyo,-6.1349,12.3689,78.39,88,95,8.23,AO,1619838000
108,Tasiilaq,65.6145,-37.6368,24.93,87,31,2.48,GL,1619838000
109,Upernavik,72.7868,-56.1549,25.72,78,100,3.71,GL,1619838000
110,Cidreira,-30.1811,-50.2056,68.68,72,0,17.85,BR,1619838000
111,Port Lincoln,-34.7333,135.8667,74.21,38,87,20.98,AU,1619838000
112,Daru,-9.0763,143.2092,81.39,80,88,11.23,PG,1619838000
113,Voss,60.623,6.4229,36.82,80,96,1.63,NO,1619838000
114,Shestakovo,56.4915,103.96,46.06,77,36,4.63,RU,1619838000
115,Hofn,64.2539,-15.2082,35.69,64,100,12.66,IS,1619838000
116,Boa Vista,2.8197,-60.6733,79.12,82,53,3.18,BR,1619838000
117,Longyearbyen,78.2186,15.6401,10.89,67,28,3.91,SJ,1619838000
118,Cravo Norte,6.3017,-70.2041,72.7,93,100,1.05,CO,1619838000
119,Talnakh,69.4865,88.3972,28.62,80,20,0.76,RU,1619838000
120,Saint-Philippe,-21.3585,55.7679,76.62,79,20,14.9,RE,1619838000
121,Torbay,47.6666,-52.7314,36.99,99,93,23.67,CA,1619838000
122,Faya,18.3851,42.4509,62.33,46,46,4.97,SA,1619838000
123,Balsas,-7.5325,-46.0356,75.65,85,92,0.83,BR,1619838000
124,Port Keats,-14.25,129.55,90.01,42,4,5.28,AU,1619838000
125,Berlevåg,70.8578,29.0864,34.14,66,98,26.11,NO,1619838000
126,Troitskoye,52.9821,84.6757,49.68,60,100,3.91,RU,1619838000
127,Ginir,7.1333,40.7,56.39,87,91,3.76,ET,1619838000
128,Chaohu,31.6,117.8667,72.55,51,0,1.99,CN,1619838000
129,Kondopoga,62.2057,34.2614,30.85,80,34,5.14,RU,1619838000
130,Puerto Escondido,15.85,-97.0667,82.26,76,45,9.17,MX,1619838000
131,Arroyo Grande,35.1186,-120.5907,61.65,71,34,4.41,US,1619838000
132,Kutum,14.2,24.6667,75.47,16,60,6.04,SD,1619838000
133,Leshukonskoye,64.8989,45.7622,34.11,85,100,2.13,RU,1619838000
134,Dikson,73.5069,80.5464,20.66,94,93,9.01,RU,1619838000
135,Marzuq,14.4,46.4667,73.9,63,85,1.28,YE,1619838000
136,Viamão,-30.0811,-51.0233,64.04,64,0,5.59,BR,1619838000
137,Ipixuna,-1.7625,-48.8043,74.52,99,93,1.9,BR,1619838000
138,Viedma,-40.8135,-62.9967,67.77,45,99,16.15,AR,1619838000
139,Muli,2.9167,73.5667,83.08,72,30,4.61,MV,1619838000
140,Muros,42.7762,-9.0603,47.8,85,6,7.11,ES,1619838000
141,Kahului,20.8947,-156.47,76.51,72,46,12.24,US,1619838000
142,Hobart,-42.8794,147.3294,71.6,51,81,4.52,AU,1619838000
143,Ekhabi,53.5102,142.9671,35.29,81,100,10.56,RU,1619838000
144,Arrondissement de Saint-Gaudens,43.0833,0.6667,46.94,95,93,3.42,FR,1619838000
145,Saint-Vallier,46.6411,4.3711,43.72,90,93,2.24,FR,1619838000
146,Ribeira Grande,38.5167,-28.7,60.12,78,99,12.88,PT,1619838000
147,Fairbanks,64.8378,-147.7164,34.41,52,93,9.73,US,1619838000
148,Carnarvon,-24.8667,113.6333,76.53,51,87,12.35,AU,1619838000
149,Ouadda,8.0777,22.4007,72.64,58,65,3.13,CF,1619838000
150,Qasigiannguit,68.8193,-51.1922,33.31,62,85,4.72,GL,1619838000
151,Qaanaaq,77.484,-69.3632,29.97,59,98,7.9,GL,1619838000
152,Airai,-8.9266,125.4092,74.62,57,45,3.56,TL,1619838000
153,Okhotsk,59.3833,143.3,35.56,77,100,2.66,RU,1619838000
154,Xai-Xai,-25.0519,33.6442,70.83,86,97,16.06,MZ,1619838000
155,Ishigaki,24.3448,124.1572,76.77,87,81,8.08,JP,1619838000
156,Chui,-33.6971,-53.4616,60.03,93,74,7.47,UY,1619838000
157,Bintulu,3.1667,113.0333,84.4,86,34,5.23,MY,1619838000
158,Niamtougou,9.7681,1.1053,80.08,71,1,4.07,TG,1619838000
159,Barrow,71.2906,-156.7887,23.18,83,93,1.57,US,1619838000
160,Ust-Kuyga,70.0167,135.6,33.3,93,82,4.7,RU,1619838000
161,Ballina,-28.8667,153.5667,71.47,66,59,10.33,AU,1619838000
162,Severo-Kuril'sk,50.6789,156.125,35.35,96,100,21.79,RU,1619838000
163,Tura,25.5198,90.2201,88.34,59,31,3.42,IN,1619838000
164,Coquimbo,-29.9533,-71.3436,59.18,84,7,1.99,CL,1619838000
165,Salym,60.0625,71.4789,36.81,89,87,11.27,RU,1619838000
166,Artvin Province,41.1667,41.8333,53.37,95,95,1.77,TR,1619838000
167,Mannārakkāt,10.9833,76.4667,85.42,74,47,1.72,IN,1619838000
168,Bilibino,68.0546,166.4372,19.94,74,60,2.55,RU,1619838000
169,Visnes,59.3556,5.2242,41.52,81,19,3.94,NO,1619838000
170,Guerrero Negro,27.9769,-114.0611,75.36,43,0,17.58,MX,1619838000
171,Codrington,-38.2667,141.9667,74.43,42,100,15.64,AU,1619838000
172,Qaqortoq,60.7167,-46.0333,46.38,40,18,4.97,GL,1619838000
173,Bambous Virieux,-20.3428,57.7575,77.27,77,83,15.17,MU,1619838000
174,Awjilah,29.1081,21.2869,83.62,13,1,10.33,LY,1619838000
175,Saint Paul Harbor,57.79,-152.4072,46.36,67,4,6.87,US,1619838000
176,Sabla,12.7525,4.7077,86.76,19,6,4.79,NG,1619838000
177,Tierra Colorada,17.1667,-99.5833,80.53,75,15,2.26,MX,1619838000
178,Pangai,-19.8,-174.35,80.37,81,82,9.46,TO,1619838000
179,Christchurch,-43.5333,172.6333,57.83,58,67,2.53,NZ,1619838000
180,Maralal,1.0968,36.698,58.32,80,49,4.09,KE,1619838000
181,Kamaishi,39.2667,141.8833,57.81,55,47,4.79,JP,1619838000
182,Esperance,-33.8667,121.9,64.15,81,84,2.89,AU,1619838000
183,Marystown,47.1666,-55.1483,39.56,96,100,27.69,CA,1619838000
184,Chokurdakh,70.6333,147.9167,22.37,82,16,5.61,RU,1619838000
185,Neiafu,-18.65,-173.9833,83.34,73,60,2.19,TO,1619838000
186,Farafangana,-22.8167,47.8333,71.28,93,27,4.68,MG,1619838000
187,Rawson,-43.3002,-65.1023,65.03,35,100,3.36,AR,1619838000
188,College,64.8569,-147.8028,34.63,50,93,9.78,US,1619838000
189,Zyryanka,65.75,150.85,37.47,80,100,5.5,RU,1619838000
190,Padang,-0.9492,100.3543,85.37,85,43,1.63,ID,1619838000
191,Ostrovnoy,68.0531,39.5131,19.99,79,75,5.5,RU,1619838000
192,Menongue,-14.6585,17.691,61.81,89,86,1.5,AO,1619838000
193,Erdenet,49.0333,104.0833,48.24,53,100,9.66,MN,1619838000
194,Saint-Pierre,-21.3393,55.4781,76.32,77,7,10.2,RE,1619838000
195,Arlit,18.7369,7.3853,85.68,6,0,8.25,NE,1619838000
196,Goth Phulji,26.8825,67.6807,90.52,30,92,4.18,PK,1619838000
197,Seoni,22.0833,79.5333,91.08,24,43,5.32,IN,1619838000
198,Mossamedes,-15.1961,12.1522,75.09,74,10,6.17,AO,1619838000
199,Nālūt,30.3333,10.85,84.61,11,57,7.0,LY,1619838000
200,Wagar,16.1525,36.2032,83.07,53,84,9.13,SD,1619838000
201,Emba,48.8264,58.1442,53.56,48,5,12.64,KZ,1619838000
202,Mount Isa,-20.7333,139.5,84.56,38,0,14.16,AU,1619838000
203,Acaraú,-2.8856,-40.12,77.7,86,51,9.04,BR,1619838000
204,Portland,45.5234,-122.6762,62.15,70,93,0.89,US,1619838000
205,Bokoro,12.3807,17.0568,84.63,5,13,9.37,TD,1619838000
206,Stephenville,32.2207,-98.2023,64.47,95,93,10.13,US,1619838000
207,San Patricio,28.017,-97.5169,73.15,89,93,15.32,US,1619838000
208,Orlik,52.5178,99.825,37.36,94,100,3.44,RU,1619838000
209,Ardakān,32.31,54.0175,70.7,36,25,4.12,IR,1619838000
210,Saint George,37.1041,-113.5841,88.93,12,32,4.83,US,1619838000
211,Saskylakh,71.9167,114.0833,32.99,95,100,6.67,RU,1619838000
212,Santa María del Oro,25.9333,-105.3667,53.13,64,64,5.37,MX,1619838000
213,Shaping,22.7545,112.9565,85.66,73,60,2.55,CN,1619838000
214,Souillac,-20.5167,57.5167,76.96,77,83,14.36,MU,1619838000
215,Altamont,42.2068,-121.7372,68.88,22,34,8.84,US,1619838000
216,Koulamoutou,-1.1303,12.4736,72.46,97,97,1.74,GA,1619838000
217,Pevek,69.7008,170.3133,19.2,81,100,15.9,RU,1619838000
218,Belaya Gora,68.5333,146.4167,29.16,77,100,9.89,RU,1619838000
219,Chaozhou,23.6651,116.6379,88.02,61,53,3.18,CN,1619838000
220,Vila do Maio,15.1333,-23.2167,71.51,79,19,14.38,CV,1619838000
221,Touros,-5.1989,-35.4608,75.87,91,57,10.02,BR,1619838000
222,Pacific Grove,36.6177,-121.9166,54.79,71,60,10.65,US,1619838000
223,Tuatapere,-46.1333,167.6833,55.65,67,77,1.41,NZ,1619838000
224,Dingle,10.9995,122.6711,90.28,65,92,10.04,PH,1619838000
225,Port Blair,11.6667,92.75,84.97,80,39,2.44,IN,1619838000
226,Alofi,-19.0595,-169.9187,81.05,86,95,3.06,NU,1619838000
227,Waipawa,-41.4122,175.5153,54.59,64,75,10.89,NZ,1619838000
228,Paeroa,-37.3667,175.6667,66.51,55,8,4.07,NZ,1619838000
229,Senneterre,48.3835,-77.2328,26.91,63,72,15.35,CA,1619838000
230,Saint Anthony,45.0205,-93.218,56.77,32,34,9.8,US,1619838000
231,Faanui,-16.4833,-151.75,81.12,72,100,5.44,PF,1619838000
232,Galeana,24.8333,-100.0667,57.74,89,96,3.0,MX,1619838000
233,Ambanja,-13.6833,48.45,73.29,91,6,3.85,MG,1619838000
234,Lüderitz,-26.6481,15.1594,63.95,39,0,9.8,NA,1619838000
235,Asău,46.4333,26.4,52.66,69,91,3.69,RO,1619838000
236,Atyrau,47.1167,51.8833,57.72,30,32,12.3,KZ,1619838000
237,Esil,51.9556,66.4042,47.68,54,11,3.8,KZ,1619838000
238,Seddon,-37.8068,144.8916,72.16,43,50,11.45,AU,1619838000
239,Mt. Pleasant,32.7941,-79.8626,72.23,51,34,6.87,US,1619838000
240,Merke,42.8728,73.1786,52.68,92,100,2.04,KZ,1619838000
241,Caravelas,-17.7125,-39.2481,76.17,67,91,13.09,BR,1619838000
242,La Santisima Trinidad,-14.8333,-64.9,74.43,61,4,1.79,BO,1619838000
243,Santa Lucía,27.9117,-15.5407,61.3,64,47,12.44,ES,1619838000
244,Itarema,-2.9248,-39.9167,76.95,89,53,8.68,BR,1619838000
245,Cajamarca,-7.1638,-78.5003,54.12,98,96,3.15,PE,1619838000
246,Kalmunai,7.4167,81.8167,83.68,80,58,7.2,LK,1619838000
247,Olafsvik,64.8945,-23.7142,34.0,67,64,28.57,IS,1619838000
248,Sur,22.5667,59.5289,84.94,47,78,5.75,OM,1619838000
249,Grindavik,63.8424,-22.4338,36.39,73,25,18.84,IS,1619838000
250,Vila Franca do Campo,37.7167,-25.4333,55.08,76,47,3.15,PT,1619838000
251,Nikolskoye,59.7035,30.7861,33.13,81,10,4.36,RU,1619838000
252,Baltasi,56.3462,50.2062,48.36,69,100,24.63,RU,1619838000
253,Pāsighāt,28.0667,95.3333,90.05,51,93,3.44,IN,1619838000
254,Ocampo,21.65,-101.5,74.62,19,60,8.48,MX,1619838000
255,Te Anau,-45.4167,167.7167,52.02,68,72,1.16,NZ,1619838000
256,Mehamn,71.0357,27.8492,33.08,62,97,22.1,NO,1619838000
257,Oleksandrivka,46.8383,32.7612,50.86,90,46,4.5,UA,1619838000
258,Dāmghān,36.1683,54.348,64.96,50,0,1.39,IR,1619838000
259,Arrondissement de Tarbes,43.25,0.1667,45.81,95,93,3.29,FR,1619838000
260,Klaksvík,62.2266,-6.589,37.04,81,83,7.81,FO,1619838000
261,Tautira,-17.7333,-149.15,83.97,71,83,12.53,PF,1619838000
262,Hambantota,6.1241,81.1185,82.89,90,22,2.3,LK,1619838000
263,Naftalan,40.5067,46.825,60.19,83,83,1.79,AZ,1619838000
264,Magnolia,33.2671,-93.2393,66.36,78,93,4.18,US,1619838000
265,Makokou,0.5738,12.8642,71.11,97,100,1.3,GA,1619838000
266,Kaeo,-35.1,173.7833,68.94,65,21,5.7,NZ,1619838000
267,Haifa,32.8156,34.9892,67.3,62,0,4.81,IL,1619838000
268,Villazón,-22.0866,-65.5942,49.17,26,8,4.68,BO,1619838000
269,Tegul'det,57.3064,88.1667,48.67,76,1,10.11,RU,1619838000
270,Kuril'sk,45.2333,147.8833,34.66,91,100,18.01,RU,1619838000
271,Kiryat Gat,31.61,34.7642,64.44,59,0,1.74,IL,1619838000
272,Paamiut,61.994,-49.6678,38.71,73,6,9.13,GL,1619838000
273,Byron Bay,-28.65,153.6167,71.29,67,60,11.41,AU,1619838000
274,Monrovia,6.3005,-10.7969,80.17,90,83,8.93,LR,1619838000
275,Lebu,-37.6167,-73.65,56.35,92,100,18.3,CL,1619838000
276,Alice Springs,-23.7,133.8833,81.91,24,60,6.2,AU,1619838000
277,Hokitika,-42.7167,170.9667,58.44,62,7,4.52,NZ,1619838000
278,Düzce,40.8389,31.1639,61.65,71,33,5.95,TR,1619838000
279,Storforshei,66.4043,14.5233,29.44,82,93,2.04,NO,1619838000
280,Āsosa,10.0667,34.5333,65.66,72,91,3.09,ET,1619838000
281,Hay River,60.8156,-115.7999,33.76,89,100,5.79,CA,1619838000
282,Boueni,-12.9025,45.0761,81.75,84,0,3.53,YT,1619838000
283,Lompoc,34.6391,-120.4579,56.28,88,93,9.64,US,1619838000
284,Taltal,-25.4,-70.4833,64.11,78,68,4.92,CL,1619838000
285,East London,-33.0153,27.9116,61.34,76,76,11.95,ZA,1619838000
286,Jakar,27.5492,90.7525,59.16,77,49,3.47,BT,1619838000
287,‘Āhuimanu,21.4447,-157.8378,77.5,74,76,13.85,US,1619838000
288,Greensburg,40.3015,-79.5389,43.57,50,14,12.37,US,1619838000
289,Port Augusta,-32.5,137.7667,80.26,33,100,19.93,AU,1619838000
290,Kodinsk,58.6881,99.1844,47.26,82,29,8.21,RU,1619838000
291,Penzance,50.1186,-5.5371,45.23,81,7,10.38,GB,1619838000
292,Barinitas,8.7622,-70.4111,75.27,85,100,3.4,VE,1619838000
293,Baní,18.2833,-70.3333,77.25,80,19,9.91,DO,1619838000
294,Bocanda,7.0626,-4.4995,76.37,86,22,3.78,CI,1619838000
295,Fare,-16.7,-151.0167,81.12,72,99,5.19,PF,1619838000
296,Kütahya,39.4242,29.9833,55.42,79,33,3.44,TR,1619838000
297,San Cristobal,7.7669,-72.225,71.74,97,83,1.23,VE,1619838000
298,Verkhoyansk,67.5447,133.385,33.35,92,91,1.45,RU,1619838000
299,Buala,-8.145,159.5921,82.62,72,100,4.5,SB,1619838000
300,Slave Lake,55.2834,-114.769,50.23,51,14,5.03,CA,1619838000
301,Talcahuano,-36.7167,-73.1167,56.86,92,93,15.79,CL,1619838000
302,Moerai,-22.4333,-151.3333,76.68,76,100,18.84,PF,1619838000
303,Pasni,25.2631,63.471,84.79,54,99,8.86,PK,1619838000
304,Yichang,30.7144,111.2847,83.7,51,0,4.47,CN,1619838000
305,Ossora,59.2353,163.0719,33.91,88,41,5.41,RU,1619838000
306,São Miguel do Iguaçu,-25.3481,-54.2378,62.69,78,0,3.85,BR,1619838000
307,Topchikha,52.8192,83.1185,53.46,32,33,7.76,RU,1619838000
308,Keti Bandar,24.1447,67.4497,84.22,75,100,15.37,PK,1619838000
309,Béboto,8.2668,16.939,77.38,70,84,4.74,TD,1619838000
310,Channarāyapatna,12.9044,76.3917,80.17,68,2,6.08,IN,1619838000
311,João Câmara,-5.5375,-35.8197,74.41,91,49,10.51,BR,1619838000
312,Svodna,45.0372,16.5383,57.22,52,99,2.95,BA,1619838000
313,Vao,-22.6667,167.4833,74.44,70,92,24.34,NC,1619838000
314,Lorengau,-2.0226,147.2712,84.97,67,73,1.81,PG,1619838000
315,Kochi,9.9399,76.2602,81.9,89,37,4.05,IN,1619838000
316,Lata,40.1629,-8.3327,48.58,85,23,2.86,PT,1619838000
317,Shëngjin,41.8136,19.5939,62.94,80,25,2.91,AL,1619838000
318,Kamenka,51.3223,42.7678,50.18,85,99,14.34,RU,1619838000
319,Kiama,-34.6833,150.8667,70.05,70,2,10.58,AU,1619838000
320,Balotra,25.8333,72.2333,89.24,36,66,5.53,IN,1619838000
321,Mwinilunga,-11.7358,24.4293,62.67,96,100,2.86,ZM,1619838000
322,Belle Fourche,44.6714,-103.8522,75.81,27,4,2.91,US,1619838000
323,Rafsanjān,30.4067,55.9939,63.91,51,100,2.28,IR,1619838000
324,Sumenep,-7.0167,113.8667,85.71,72,87,8.81,ID,1619838000
325,Qui Nhon,13.7667,109.2333,83.79,74,62,8.5,VN,1619838000
326,Nemuro,43.3236,145.575,44.89,66,80,13.65,JP,1619838000
327,Río Gallegos,-51.6226,-69.2181,43.39,85,8,9.75,AR,1619838000
328,Bengkulu,-3.8004,102.2655,84.43,79,95,3.65,ID,1619838000
329,Reconquista,-29.15,-59.65,61.43,76,0,6.98,AR,1619838000
330,Vestmannaeyjar,63.4427,-20.2734,38.57,90,92,14.61,IS,1619838000
331,San Vicente,-26.6167,-54.1333,57.36,62,1,2.91,AR,1619838000
332,Gazli,40.1333,63.45,61.27,42,43,23.2,UZ,1619838000
333,Balkhash,46.844,74.9804,54.27,54,51,9.28,KZ,1619838000
334,Erzin,36.9559,36.2,64.78,83,0,1.36,TR,1619838000
335,Praia da Vitória,38.7333,-27.0667,59.49,74,47,6.71,PT,1619838000
336,Merauke,-8.4667,140.3333,85.59,73,29,8.28,ID,1619838000
337,Zhengjiatun,43.5064,123.5064,60.46,23,89,7.11,CN,1619838000
338,Coracora,-15.0333,-73.7833,47.08,75,35,1.03,PE,1619838000
339,Lavrentiya,65.5833,-171.0,25.36,70,46,2.08,RU,1619838000
340,San Jose,37.3394,-121.895,64.99,56,93,5.14,US,1619838000
341,Lityn,49.3251,28.0809,49.86,94,44,4.94,UA,1619838000
342,Malangali,-8.5667,34.85,61.41,94,87,5.21,TZ,1619838000
343,Melita,49.2681,-100.9967,67.6,35,98,8.86,CA,1619838000
344,Feijó,-8.1642,-70.3536,73.22,80,68,1.36,BR,1619838000
345,Kapit,2.0167,112.9333,83.95,89,100,1.52,MY,1619838000
346,Katsuura,35.1333,140.3,67.64,63,49,17.49,JP,1619838000
347,Geraldton,-28.7667,114.6,69.39,44,54,10.76,AU,1619838000
348,Palmer,42.1584,-72.3287,46.85,55,76,14.38,US,1619838000
349,Avsyunino,55.5652,39.1232,49.05,92,33,9.35,RU,1619838000
350,Najrān,17.4924,44.1277,75.78,31,83,4.7,SA,1619838000
351,Hasaki,35.7333,140.8333,69.06,62,68,23.35,JP,1619838000
352,Yuanping,38.7153,112.7575,65.84,32,76,18.92,CN,1619838000
353,Okato,-39.2,173.8833,59.63,68,18,7.94,NZ,1619838000
354,Hamilton,39.1834,-84.5333,51.82,39,1,6.62,US,1619838000
355,Zhigansk,66.7697,123.3711,30.47,94,100,5.57,RU,1619838000
356,Mount Gambier,-37.8333,140.7667,72.55,46,100,11.25,AU,1619838000
357,Atikokan,48.7555,-91.6216,48.49,42,65,10.45,CA,1619838000
358,Takoradze,4.8845,-1.7554,81.27,81,90,6.24,GH,1619838000
359,Ratnagiri,16.9833,73.3,85.98,70,57,7.45,IN,1619838000
360,Vista Hermosa,19.5167,-99.2167,71.35,52,83,1.63,MX,1619838000
361,Belgrade,44.804,20.4651,60.01,77,33,2.59,RS,1619838000
362,Salamiyah,35.0113,37.0532,65.66,33,0,7.54,SY,1619838000
363,Rāzole,16.4833,81.8333,88.65,78,27,5.73,IN,1619838000
364,Illela,13.7292,5.2975,86.16,8,1,7.07,NG,1619838000
365,San Borja,-14.8167,-66.85,67.64,82,5,0.87,BO,1619838000
366,Den Helder,52.9599,4.7593,45.41,88,87,10.65,NL,1619838000
367,Palana,59.1167,159.9667,31.77,89,77,6.38,RU,1619838000
368,Uyar,55.81,94.3153,50.05,68,80,10.38,RU,1619838000
369,Jinchang,38.4953,102.1739,74.53,14,63,2.46,CN,1619838000
370,Krasnoufimsk,56.6059,57.7669,46.44,63,98,14.32,RU,1619838000
371,Sørland,67.667,12.6934,36.25,57,100,10.4,NO,1619838000
372,Ahmadpur,18.7,76.9333,91.71,29,69,2.71,IN,1619838000
373,Salinópolis,-0.6136,-47.3561,76.87,86,98,4.43,BR,1619838000
374,Gushikawa,26.3544,127.8686,75.78,84,82,13.24,JP,1619838000
375,Avera,33.194,-82.5271,68.02,50,34,8.7,US,1619838000
376,Ţahţā,26.7693,31.5021,80.4,16,0,8.66,EG,1619838000
377,Sesheke,-17.4759,24.2968,64.71,84,66,3.29,ZM,1619838000
378,Omboué,-1.5746,9.2618,77.49,90,99,4.54,GA,1619838000
379,Siedlce,52.1677,22.2901,39.63,82,68,0.83,PL,1619838000
380,Kwinana,-32.25,115.7667,65.73,67,3,3.96,AU,1619838000
381,Adrar,20.5022,-10.0711,76.78,44,38,3.2,MR,1619838000
382,Verkhnyaya Inta,65.9811,60.3094,35.56,64,60,13.73,RU,1619838000
383,Nanga Eboko,4.6833,12.3667,68.52,94,90,1.45,CM,1619838000
384,Sivas Province,39.7916,37.0019,47.75,82,15,3.78,TR,1619838000
385,Aklavik,68.2191,-135.0107,33.42,73,100,5.44,CA,1619838000
386,Pontian Kecil,1.4801,103.3899,85.19,85,44,2.93,MY,1619838000
387,Taku,39.0211,117.6469,63.93,42,0,18.63,CN,1619838000
388,Brownsville,25.9018,-97.4975,74.59,86,93,4.05,US,1619838000
389,Bilma,18.6853,12.9164,82.81,5,0,8.23,NE,1619838000
390,San Felipe,10.3399,-68.7425,71.74,95,95,1.45,VE,1619838000
391,Vila Velha,-20.3297,-40.2925,74.62,67,33,13.02,BR,1619838000
392,City of San Pedro,14.35,121.0167,91.27,57,18,5.99,PH,1619838000
393,Honggang,46.4667,124.8667,55.33,43,89,8.99,CN,1619838000
394,Namtsy,62.7161,129.6658,40.37,72,33,4.99,RU,1619838000
395,Bad Hofgastein,47.1667,13.1,45.81,85,93,1.72,AT,1619838000
396,Lagoa,39.05,-27.9833,59.04,73,100,10.65,PT,1619838000
397,Nome,64.5011,-165.4064,24.96,70,54,4.99,US,1619838000
398,Pedra Azul,-16.0053,-41.2972,64.8,88,94,6.82,BR,1619838000
399,Matagami,49.7502,-77.6328,23.79,57,67,12.17,CA,1619838000
400,Ketchikan,55.3422,-131.6461,43.77,95,100,3.91,US,1619838000
401,Jieshi,22.8134,115.8257,78.91,72,96,8.72,CN,1619838000
402,Chingirlau,51.095,54.0814,50.43,56,93,8.03,KZ,1619838000
403,Araucária,-25.5931,-49.4103,53.06,95,38,4.76,BR,1619838000
404,Porto-Novo,6.4965,2.6036,83.3,78,46,7.78,BJ,1619838000
405,Bjørnevatn,69.6672,29.9847,31.3,91,83,28.72,NO,1619838000
406,Newport Beach,33.6189,-117.9289,72.99,43,51,4.38,US,1619838000
407,Kattivākkam,13.2167,80.3167,86.18,77,32,9.01,IN,1619838000
408,Edgewater,28.9889,-80.9023,78.33,61,30,7.83,US,1619838000
409,Zhezkazgan,47.8043,67.7144,54.52,40,1,6.04,KZ,1619838000
410,Broken Hill,-31.95,141.4333,75.92,38,100,18.75,AU,1619838000
411,Eyrarbakki,63.863,-21.1481,33.8,70,36,20.07,IS,1619838000
412,Sibolga,1.7427,98.7792,85.41,76,79,3.51,ID,1619838000
413,Podor,16.6527,-14.9587,76.46,51,1,10.65,MR,1619838000
414,Tazovsky,67.4667,78.7,29.44,93,100,10.92,RU,1619838000
415,Betanzos,43.2804,-8.2147,46.22,90,15,1.03,ES,1619838000
416,Sal Rei,16.1833,-22.9167,69.98,77,28,13.82,CV,1619838000
417,São Miguel do Araguaia,-13.275,-50.1628,73.8,83,100,5.06,BR,1619838000
418,Orós,-6.2444,-38.9136,77.7,63,98,4.56,BR,1619838000
419,Hobyo,5.3505,48.5268,83.37,68,59,7.0,SO,1619838000
420,Buraidah,26.326,43.975,75.58,31,0,5.57,SA,1619838000
421,Turukhansk,65.8167,87.9833,36.46,89,100,13.29,RU,1619838000
422,Toamasina,-18.1667,49.3833,73.27,97,38,8.19,MG,1619838000
423,Tarko-Sale,64.9225,77.785,32.04,96,100,20.04,RU,1619838000
424,Haines Junction,60.7522,-137.5108,44.19,53,98,5.21,CA,1619838000
425,Camacha,33.0833,-16.3333,60.26,66,46,12.5,PT,1619838000
426,Phan Thiet,10.9333,108.1,87.24,72,87,11.3,VN,1619838000
427,Tamworth,52.634,-1.6959,37.09,87,36,5.1,GB,1619838000
428,Lewistown,40.5992,-77.5714,44.62,55,17,19.01,US,1619838000
429,Vardø,70.3705,31.1107,33.85,81,99,21.5,NO,1619838000
430,Puro,12.4841,123.3827,85.59,70,63,6.62,PH,1619838000
431,Naze,28.3667,129.4833,74.12,76,80,21.14,JP,1619838000
432,Salekhard,66.53,66.6019,17.71,91,51,2.66,RU,1619838000
433,Shetpe,44.1667,52.1167,64.29,40,80,14.41,KZ,1619838000
434,Chapais,49.7834,-74.8492,32.99,76,93,16.24,CA,1619838000
435,Saint-Augustin,51.226,-58.6502,40.33,83,91,20.24,CA,1619838000
436,Ilulissat,69.2167,-51.1,33.33,62,80,5.44,GL,1619838000
437,Constantine,36.365,6.6147,68.63,50,33,9.86,DZ,1619838000
438,Cap-aux-Meules,47.3821,-61.8597,38.05,98,100,36.86,CA,1619838000
439,Nova Olinda do Norte,-3.8881,-59.0942,74.03,97,94,0.16,BR,1619838000
440,Iaciara,-14.0958,-46.6317,74.79,63,100,4.38,BR,1619838000
441,Ikom,5.9667,8.7063,76.93,92,100,1.1,NG,1619838000
442,Oruzgan,32.8333,66.0,66.72,47,97,5.19,AF,1619838000
443,Stjørdalshalsen,63.4681,10.9262,34.36,85,60,0.58,NO,1619838000
444,Hwange,-18.3693,26.5019,66.24,78,69,2.77,ZW,1619838000
445,Giruá,-28.0283,-54.3497,64.04,54,0,6.29,BR,1619838000
446,Ulsteinvik,62.3432,5.8487,37.72,83,68,5.79,NO,1619838000
447,Qeshm,26.9581,56.2719,80.65,63,39,6.42,IR,1619838000
448,Deputatsky,69.3,139.9,26.06,90,97,4.21,RU,1619838000
449,Lourdes,43.1,-0.05,45.73,95,93,2.1,FR,1619838000
450,Beloha,-25.1667,45.05,69.24,75,7,3.47,MG,1619838000
451,Djebeniana,35.035,10.9081,74.39,64,45,10.02,TN,1619838000
452,Sfântu Gheorghe,45.8667,25.7833,49.5,78,55,2.46,RO,1619838000
453,Bondoukou,8.0333,-2.8,77.52,68,72,5.73,CI,1619838000
454,Norden,53.6,7.2,45.12,97,100,10.89,DE,1619838000
455,Preeceville,51.95,-102.6677,61.86,53,59,7.47,CA,1619838000
456,Bontang,0.1333,117.5,83.28,82,92,2.48,ID,1619838000
457,Nuuk,64.1835,-51.7216,33.03,87,53,6.44,GL,1619838000
458,Nioro,13.35,-15.75,80.55,32,9,9.53,GM,1619838000
459,Pipraich,26.8264,83.53,92.43,37,10,9.73,IN,1619838000
460,Vila,42.0304,-8.1588,40.23,91,2,4.05,PT,1619838000
461,Kananga,-5.8958,22.4178,68.86,96,100,2.28,CD,1619838000
462,Puerto Quijarro,-17.7833,-57.7667,71.87,45,6,1.59,BO,1619838000
463,Havelock,34.8791,-76.9013,70.88,39,76,12.01,US,1619838000
464,Zhangye,38.9342,100.4517,74.88,16,98,4.94,CN,1619838000
465,Hastings,50.8552,0.5729,40.39,80,18,4.09,GB,1619838000
466,Clyde River,70.4692,-68.5914,18.54,98,80,3.8,CA,1619838000
467,Skibbereen,51.55,-9.2667,41.54,84,68,4.74,IE,1619838000
468,Abashiri,44.0213,144.2697,39.36,94,83,18.25,JP,1619838000
469,Narasannapeta,18.4167,84.05,87.46,78,0,10.71,IN,1619838000
470,Moose Factory,51.2585,-80.6094,28.81,65,48,4.85,CA,1619838000
471,Mumbwa,-14.9783,27.0619,64.49,91,96,2.33,ZM,1619838000
472,Gravdal,68.1214,13.5031,34.68,62,99,12.44,NO,1619838000
473,Inhambane,-23.865,35.3833,71.71,83,85,7.92,MZ,1619838000
474,Weyburn,49.6668,-103.8511,72.75,25,99,6.35,CA,1619838000
475,Tsiroanomandidy,-18.7667,46.0333,62.58,91,1,2.57,MG,1619838000
476,San Rafael del Sur,11.8485,-86.4384,87.26,53,51,3.65,NI,1619838000
477,Seydi,39.4816,62.9137,62.2,46,69,20.18,TM,1619838000
478,Vavoua,7.3819,-6.4778,76.06,84,75,5.7,CI,1619838000
479,Atherton,53.5237,-2.4935,38.57,84,45,3.74,GB,1619838000
480,Kavaratti,10.5669,72.642,84.13,75,15,9.69,IN,1619838000
481,Mackay,-21.15,149.2,75.74,77,34,16.71,AU,1619838000
482,Prince Rupert,54.3161,-130.3201,44.87,89,93,6.42,CA,1619838000
483,Luwuk,-0.9516,122.7875,87.4,67,75,3.31,ID,1619838000
484,Dunedin,-45.8742,170.5036,56.8,52,57,6.04,NZ,1619838000
485,Gornyak,50.9942,81.4661,53.46,52,96,9.53,RU,1619838000
486,Nivala,63.9167,24.9667,28.13,86,85,6.4,FI,1619838000
487,Batagay,67.6333,134.6333,32.99,91,98,0.98,RU,1619838000
488,Guangming,45.3333,122.7833,58.59,30,97,11.41,CN,1619838000
489,Rio Grande,-32.035,-52.0986,65.73,88,0,14.38,BR,1619838000
490,Ruteng,-8.6136,120.4721,73.87,72,20,2.73,ID,1619838000
491,Lusambo,-4.9667,23.45,69.4,97,100,1.16,CD,1619838000
492,Kisi,9.0833,3.85,77.81,76,75,9.55,NG,1619838000
493,Belmonte,-15.8631,-38.8828,74.89,86,92,10.92,BR,1619838000
494,Saýat,38.7839,63.8803,65.25,57,33,14.52,TM,1619838000
495,Cabo San Lucas,22.8909,-109.9124,77.02,43,1,6.6,MX,1619838000
496,Panjāb,34.388,67.0233,49.6,75,98,2.8,AF,1619838000
497,Jerantut,3.936,102.3626,82.33,91,99,0.87,MY,1619838000
498,Gambēla,8.25,34.5833,74.48,78,100,3.4,ET,1619838000
499,Kautokeino,69.0125,23.0412,5.59,90,39,6.87,NO,1619838000
500,Ukiah,39.1502,-123.2078,67.01,42,34,5.12,US,1619838000
501,Maïné Soroa,13.2114,12.0241,85.6,10,4,10.54,NE,1619838000
502,Vostok,46.4856,135.8833,54.43,43,0,8.99,RU,1619838000
503,Ol'ga,43.7444,135.2892,49.6,60,55,9.04,RU,1619838000
504,Hirara,24.8,125.2833,77.41,86,83,8.72,JP,1619838000
505,Esim,4.8699,-2.2405,81.41,80,91,5.75,GH,1619838000
506,Nikolayevsk-on-Amur,53.1406,140.73,40.8,75,100,5.39,RU,1619838000
507,Zhangaözen,43.3,52.8,63.57,47,45,18.52,KZ,1619838000
508,Nishihara,26.1842,127.7558,75.85,83,82,12.84,JP,1619838000
509,Tilichiki,60.4667,166.1,29.37,73,20,14.09,RU,1619838000
510,Yershov,51.3513,48.2766,51.66,60,100,15.21,RU,1619838000
511,Cap Malheureux,-19.9842,57.6142,78.75,78,64,19.44,MU,1619838000
512,Mounana,-1.4085,13.1586,71.22,98,98,2.42,GA,1619838000
513,Petawawa,45.9001,-77.3328,32.34,75,92,16.28,CA,1619838000
514,Yanam,16.7333,82.2167,88.81,77,27,4.92,IN,1619838000
515,Preobrazheniye,42.9019,133.9064,46.65,71,87,4.74,RU,1619838000
516,Beisfjord,68.3751,17.5988,23.68,98,83,4.85,NO,1619838000
517,Baishishan,43.5833,127.5667,46.96,81,100,6.11,CN,1619838000
518,Harper,4.375,-7.7169,80.92,78,100,5.61,LR,1619838000
519,Lima,-12.0432,-77.0282,66.81,83,33,6.15,PE,1619838000
520,Hailey,43.5196,-114.3153,69.85,30,28,4.81,US,1619838000
521,Mineiros,-17.5694,-52.5511,72.97,53,99,2.06,BR,1619838000
522,Conceição do Araguaia,-8.2578,-49.2647,76.87,86,47,1.74,BR,1619838000
523,Alenquer,-1.9417,-54.7383,74.57,97,60,3.06,BR,1619838000
524,Selty,57.3132,52.1345,48.94,64,99,18.86,RU,1619838000
525,Boguchany,58.3814,97.4531,47.86,81,21,9.95,RU,1619838000
526,Bowen,-20.0167,148.2333,78.35,67,29,15.7,AU,1619838000
527,Saldanha,-33.0117,17.9442,56.53,76,0,9.98,ZA,1619838000
528,Caucayá,-0.1934,-74.7819,70.93,99,89,2.59,CO,1619838000
529,Kaitangata,-46.2817,169.8464,57.33,54,80,5.77,NZ,1619838000
530,Bogorodskoye,56.55,37.8833,44.67,89,100,11.14,RU,1619838000
531,Isangel,-19.55,169.2667,82.62,72,64,17.0,VU,1619838000
532,Abnūb,27.2696,31.1511,80.8,25,0,6.91,EG,1619838000
533,Greymouth,-42.4667,171.2,58.48,69,22,4.29,NZ,1619838000
534,Mahenge,-8.6833,36.7167,62.28,96,99,1.3,TZ,1619838000
535,Chicama,-7.8447,-79.1469,69.96,84,70,6.2,PE,1619838000
536,Ziguinchor,12.5833,-16.2719,77.92,62,30,8.66,SN,1619838000
537,Mâncio Lima,-7.6142,-72.8958,72.88,81,61,0.18,BR,1619838000
538,Shimanovsk,52.0,127.7,48.52,48,91,5.68,RU,1619838000
539,Ixtapa,20.7,-105.2,76.01,81,57,1.5,MX,1619838000
540,Lodhran,29.5405,71.6336,92.05,25,18,7.25,PK,1619838000
541,Cururupu,-1.8283,-44.8683,73.71,96,52,2.06,BR,1619838000
542,Puerto del Rosario,28.5004,-13.8627,63.91,60,33,12.21,ES,1619838000
543,Narsaq,60.9167,-46.05,46.02,39,35,7.29,GL,1619838000
544,Miraflores,19.2167,-98.8083,69.39,59,72,6.17,MX,1619838000
545,Abhā,18.2164,42.5053,62.26,46,46,6.98,SA,1619838000
546,Mitzic,0.7821,11.549,69.31,98,99,1.43,GA,1619838000
547,Tigil',57.8,158.6667,43.97,75,97,7.27,RU,1619838000
548,Chissamba,-12.1667,17.3333,62.87,95,95,3.67,AO,1619838000
549,Ust'-Ishim,57.6935,71.1665,39.9,65,40,13.49,RU,1619838000
550,Messaria,36.3985,25.4459,65.48,52,49,3.13,GR,1619838000
551,Port Hardy,50.6996,-127.4199,50.45,86,82,4.99,CA,1619838000
552,Olenegorsk,68.15,33.3,15.69,89,20,4.25,RU,1619838000
553,Fortuna,40.5982,-124.1573,56.05,94,47,4.29,US,1619838000
554,Wajir,1.7471,40.0573,79.47,70,79,10.13,KE,1619838000
555,Abu Samrah,35.3029,37.1841,66.85,33,0,6.15,SY,1619838000
556,Rockhampton,-23.3833,150.5,80.13,55,65,12.53,AU,1619838000
557,Ancud,-41.8697,-73.8203,56.08,96,93,14.52,CL,1619838000
558,Oga,46.4631,10.347,45.48,94,80,3.6,IT,1619838000
559,Guánica,17.9716,-66.908,75.29,76,34,8.37,PR,1619838000
560,Bud,39.447,-86.1758,49.21,49,1,4.23,US,1619838000
561,Mercedes,-34.6515,-59.4307,56.88,84,0,7.63,AR,1619838000
562,Troy,42.6056,-83.1499,47.1,35,1,12.39,US,1619838000
563,Soverato Marina,38.685,16.5499,69.89,55,82,4.65,IT,1619838000
564,Brainerd,46.358,-94.2008,53.44,34,60,14.5,US,1619838000
565,Lingao,19.9103,109.6859,81.23,80,93,3.94,CN,1619838000
566,Alta Floresta,-9.8756,-56.0861,75.0,95,83,1.83,BR,1619838000
567,Churapcha,62.0025,132.4325,43.56,87,95,7.58,RU,1619838000
568,Thanh Pho Uong Bi,21.0333,106.7833,84.56,76,33,3.02,VN,1619838000
569,Natchitoches,31.7668,-93.1335,67.98,88,60,5.86,US,1619838000
570,Beringovskiy,63.05,179.3167,24.24,76,88,11.34,RU,1619838000
571,Srednekolymsk,67.45,153.6833,29.14,77,8,12.26,RU,1619838000
572,Albanel,48.8832,-72.4487,52.5,57,100,15.95,CA,1619838000
573,Esterhazy,50.65,-102.0843,70.5,32,55,7.67,CA,1619838000
574,Limbang,4.75,115.0,90.21,77,83,2.15,MY,1619838000
575,Bariloche,-41.1456,-71.3082,48.87,84,93,7.16,AR,1619838000
576,Mīzan Teferī,6.9833,35.5833,60.78,88,95,3.18,ET,1619838000
577,Gornopravdinsk,60.05,69.9,36.5,90,98,11.1,RU,1619838000
578,Bonthe,7.5264,-12.505,80.02,80,51,4.7,SL,1619838000
